,City,Cloudiness,Country,Date,Humidity,Lat,Lng,Max_temp,Wind_speed
0,Sarkand,91,KZ,1586642392,36,45.41,79.92,47.91,4.14
1,Jamestown,1,US,1586642384,48,42.1,-79.24,48.0,14.99
2,New Norfolk,75,AU,1586642394,57,-42.78,147.06,52.0,13.87
3,Port Alfred,77,ZA,1586642200,90,-33.59,26.89,68.0,4.0
4,Saint-Pierre,40,RE,1586642297,73,-21.34,55.48,75.2,3.36
5,Zyryanka,5,RU,1586642398,95,65.75,150.85,20.77,11.59
6,Hambantota,26,LK,1586642399,81,6.12,81.12,80.82,10.56
7,Bluff,100,NZ,1586642173,64,-46.6,168.33,57.99,4.0
8,Coyhaique,40,CL,1586642192,57,-45.58,-72.07,50.0,8.05
9,Qaanaaq,91,GL,1586642179,75,77.48,-69.36,14.05,2.35
10,Bakchar,5,RU,1586642404,98,57.02,82.07,30.13,4.45
11,Upernavik,100,GL,1586642365,89,72.79,-56.15,20.88,0.98
12,Vaini,20,TO,1586642167,69,-21.2,-175.2,78.8,4.7
13,Peleduy,65,RU,1586642408,95,59.63,112.74,26.91,3.89
14,Mehamn,85,NO,1586642384,92,71.04,27.85,20.98,4.47
15,Mar del Plata,37,AR,1586642203,60,-38.0,-57.56,68.0,9.17
16,Senneterre,40,CA,1586642412,32,48.38,-77.23,39.2,11.41
17,Miyang,97,CN,1586642414,51,24.4,103.44,58.95,4.47
18,Arraial do Cabo,75,BR,1586642415,83,-22.97,-42.03,71.6,5.82
19,Broome,20,US,1586642187,33,42.25,-75.83,48.0,11.41
20,Ribeira Grande,0,PT,1586642417,71,38.52,-28.7,62.6,7.74
21,Talnakh,75,RU,1586642163,80,69.49,88.4,35.6,31.32
22,Tasiilaq,72,GL,1586642183,39,65.61,-37.64,30.2,13.87
23,Turukhansk,100,RU,1586642225,94,65.82,87.98,34.59,18.48
24,Chipinge,56,ZW,1586642422,66,-20.19,32.62,59.77,2.33
25,Saint Paul Harbor,90,US,1586642424,75,57.79,-152.41,41.0,16.11
26,Palana,0,RU,1586642425,90,59.12,159.97,12.76,4.5
27,Oranjemund,27,NA,1586642211,92,-28.55,16.43,59.38,1.83
28,Atuona,64,PF,1586642213,68,-9.8,-139.03,82.8,7.47
29,Aksu,99,CN,1586642288,20,41.12,80.26,57.85,2.48
30,Albany,40,US,1586642161,31,42.6,-73.97,48.99,17.22
31,Dikson,100,RU,1586642431,96,73.51,80.55,14.29,10.11
32,Busselton,96,AU,1586642432,69,-33.65,115.33,71.01,8.14
33,Comodoro Rivadavia,0,AR,1586642289,33,-45.87,-67.5,62.6,14.99
34,Mataura,100,NZ,1586642435,65,-46.19,168.86,57.99,3.0
35,Lebu,0,CL,1586642436,55,-37.62,-73.65,57.85,16.91
36,Ushuaia,75,AR,1586642232,75,-54.8,-68.3,42.8,26.4
37,Colac,79,AU,1586642439,98,-38.33,143.58,53.01,1.01
38,Kapaa,90,US,1586642440,69,22.08,-159.32,78.8,4.7
39,Yellowknife,40,CA,1586642208,57,62.46,-114.35,19.0,16.11
40,Beringovskiy,98,RU,1586642218,94,63.05,179.32,11.26,10.49
41,Pisco,0,PE,1586642444,30,-13.7,-76.22,75.99,5.82
42,Honningsvåg,98,NO,1586642445,91,70.98,25.97,30.42,6.6
43,College,75,US,1586642447,41,64.86,-147.8,41.0,6.93
44,Thompson,90,CA,1586642412,79,55.74,-97.86,24.8,11.41
45,Zeya,0,RU,1586642449,83,53.75,127.27,33.19,4.16
46,Hermanus,100,ZA,1586642451,65,-34.42,19.23,70.0,10.0
47,Bilibino,92,RU,1586642452,90,68.05,166.44,10.0,1.25
48,Rikitea,78,PF,1586642344,74,-23.12,-134.97,77.04,1.34
49,Chokurdakh,99,RU,1586642454,98,70.63,147.92,27.21,13.85
50,Saint George,1,US,1586642191,34,37.1,-113.58,66.2,14.99
51,Soyo,98,AO,1586642457,86,-6.13,12.37,80.62,4.23
52,Hilo,1,US,1586642223,69,19.73,-155.09,80.6,8.05
53,Marsá Maţrūḩ,0,EG,1586642460,73,31.35,27.25,60.67,5.88
54,Bambous Virieux,40,MU,1586642182,83,-20.34,57.76,78.01,11.41
55,Saskylakh,19,RU,1586642462,90,71.92,114.08,0.82,14.94
56,San Quintín,9,MX,1586642463,65,30.48,-115.95,62.71,16.91
57,Tazovsky,100,RU,1586642465,95,67.47,78.7,33.93,17.11
58,Petropavlovsk-Kamchatskiy,70,RU,1586642466,68,53.05,158.65,30.2,4.47
59,Bengkulu,37,ID,1586642467,81,-3.8,102.27,78.55,3.58
60,Chifeng,0,CN,1586642468,43,42.27,118.96,41.54,7.16
61,Longyearbyen,20,SJ,1586642469,70,78.22,15.64,-5.8,3.36
62,Grindavik,40,IS,1586642471,80,63.84,-22.43,41.0,13.87
63,San Miguel de Tucumán,40,AR,1586642472,47,-26.82,-65.22,78.8,11.41
64,Huejuquilla el Alto,83,MX,1586642473,13,22.6,-103.87,80.71,26.13
65,Flinders,0,AU,1586642474,57,-34.58,150.86,57.0,12.75
66,Alofi,97,NU,1586642464,65,-19.06,-169.92,82.4,10.29
67,Bunbury,100,AU,1586642477,69,-33.33,115.63,71.01,6.38
68,Sinop Province,94,TR,1586642479,69,41.77,34.87,40.8,5.14
69,Alim,60,PH,1586642480,73,9.56,122.49,78.15,4.23
70,Bålsta,100,SE,1586642481,60,59.57,17.53,44.6,10.29
71,Butaritari,95,KI,1586642484,76,3.07,172.79,83.98,13.35
72,São Filipe,86,CV,1586642312,73,14.9,-24.5,75.61,12.48
73,Bredasdorp,100,ZA,1586642271,56,-34.53,20.04,71.6,17.22
74,Faya,44,SA,1586642488,55,18.39,42.45,66.2,1.81
75,Torbay,75,CA,1586642489,59,47.67,-52.73,37.4,29.97
76,Thinadhoo,0,MV,1586642491,61,0.53,72.93,84.15,3.91
77,Punta Arenas,65,CL,1586642460,61,-53.15,-70.92,48.2,14.99
78,Bundaberg,45,AU,1586642405,72,-24.85,152.35,68.0,6.26
79,Shimoda,75,JP,1586642495,87,34.67,138.95,51.01,3.36
80,Port Lincoln,81,AU,1586642391,64,-34.73,135.87,56.75,7.05
81,Te Anau,56,NZ,1586642497,67,-45.42,167.72,55.45,5.06
82,Walvis Bay,0,NA,1586642364,73,-22.96,14.51,73.0,7.9
83,Hobart,75,AU,1586642356,57,-42.88,147.33,52.0,13.87
84,Paita,57,PE,1586642501,57,-5.09,-81.11,81.25,16.22
85,La Ronge,75,CA,1586642502,52,55.1,-105.28,19.4,18.34
86,Geraldton,75,AU,1586642504,100,-28.77,114.6,66.2,3.36
87,Ürümqi,70,CN,1586642505,49,43.8,87.6,48.2,4.47
88,Berlevåg,79,NO,1586642210,90,70.86,29.09,25.02,3.24
89,Tiksi,37,RU,1586642311,93,71.69,128.87,13.08,17.74
90,Guerrero Negro,10,MX,1586642401,49,27.98,-114.06,67.06,17.31
91,Nikolskoye,5,RU,1586642510,92,59.7,30.79,28.4,2.24
92,Port-Gentil,100,GA,1586642276,87,-0.72,8.78,78.13,11.99
93,Ilulissat,100,GL,1586642513,68,69.22,-51.1,30.2,5.82
94,Jinxiang,39,CN,1586642514,74,22.86,115.7,63.37,14.67
95,Kismayo,100,SO,1586642515,76,-0.36,42.55,83.73,7.85
96,Bethel,20,US,1586642516,25,41.37,-73.41,55.0,8.05
97,Nome,40,US,1586642518,86,64.5,-165.41,28.4,10.29
98,Castro,13,BR,1586642519,66,-24.79,-50.01,60.94,2.33
99,Kawalu,12,ID,1586642520,79,-7.38,108.21,72.54,1.36
100,Chui,33,UY,1586642487,66,-33.7,-53.46,65.95,7.0
101,Kaeo,73,NZ,1586642283,94,-35.1,173.78,66.0,8.01
102,Sørland,100,NO,1586642524,78,67.67,12.69,35.38,12.19
103,Port Hardy,5,CA,1586642525,53,50.7,-127.42,51.8,4.7
104,Chiang Rai,82,TH,1586642409,73,19.91,99.83,77.0,1.12
105,Elizabeth City,1,US,1586642527,25,36.29,-76.25,64.4,10.29
106,Dingle,10,PH,1586642354,78,11.0,122.67,76.33,5.44
107,Barrow,90,US,1586642530,84,71.29,-156.79,8.6,11.41
108,Saldanha,98,ZA,1586642531,88,-33.01,17.94,62.6,12.75
109,Mt. Pleasant,1,US,1586642532,45,32.79,-79.86,71.6,8.05
110,Kitsuki,75,JP,1586642534,100,33.42,131.62,50.0,9.17
111,West Fargo,90,US,1586642535,64,46.88,-96.9,39.2,18.34
112,Cape Town,75,ZA,1586642377,93,-33.93,18.42,64.99,19.46
113,Kaili,100,ID,1586642537,71,-3.46,120.21,71.6,4.18
114,Alnashi,100,RU,1586642539,69,56.19,52.48,41.72,8.84
115,Portree,100,GB,1586642540,86,57.41,-6.19,45.0,4.0
116,Meïganga,100,CM,1586642541,64,6.52,14.3,66.36,0.87
117,Royan,55,FR,1586642542,51,45.63,-1.03,60.8,2.24
118,Umluj,1,SA,1586642544,51,25.02,37.27,69.55,7.45
119,Diego de Almagro,45,CL,1586642545,18,-26.37,-70.05,75.29,10.11
120,Sępólno Krajeńskie,100,PL,1586642546,36,53.45,17.53,45.0,8.05
121,Labuhan,57,ID,1586642547,85,-6.88,112.21,76.96,3.91
122,Balgazyn,93,RU,1586642549,64,51.0,95.2,35.96,0.72
123,Ambilobe,0,MG,1586642550,84,-13.2,49.05,73.67,4.72
124,Avarua,96,CK,1586642551,84,-21.21,-159.78,86.0,5.82
125,Gravdal,100,NO,1586642552,80,68.12,13.5,35.2,8.57
126,Ust'-Barguzin,100,RU,1586642554,69,53.45,108.98,35.06,2.46
127,Pevek,62,RU,1586642555,91,69.7,170.31,6.39,13.24
128,Esperance,98,AU,1586642556,60,-33.87,121.9,69.8,18.34
129,Cercal,49,PT,1586642557,89,37.81,-8.67,59.0,8.01
130,Hasaki,75,JP,1586642504,93,35.73,140.83,46.4,10.29
131,Winnemucca,20,US,1586642560,25,40.97,-117.74,64.4,15.48
132,Mossamedes,0,AO,1586642561,61,-15.2,12.15,77.59,3.62
133,Sulechów,86,PL,1586642562,63,52.08,15.63,46.0,5.1
134,Antalaha,17,MG,1586642421,83,-14.9,50.28,76.77,11.88
135,Leiyang,5,CN,1586642565,88,26.4,112.86,45.86,3.8
136,Darnah,0,LY,1586642566,69,32.77,22.64,59.97,16.2
137,Hvolsvollur,51,IS,1586642567,80,63.75,-20.22,37.0,4.0
138,Gorin,41,RU,1586642568,85,51.2,136.67,33.51,2.08
139,San Cristobal,40,VE,1586642439,38,7.77,-72.22,93.2,20.8
140,Aranos,7,NA,1586642571,23,-24.13,19.12,75.36,13.53
141,Alekseyevskoye,100,RU,1586642572,86,55.31,50.11,37.4,11.18
142,Bud,1,US,1586642574,25,39.45,-86.18,64.0,10.29
143,Castle Rock,75,US,1586642575,11,39.37,-104.86,72.0,10.29
144,Faanui,56,PF,1586642576,77,-16.48,-151.75,82.6,12.66
145,Srīvardhan,10,IN,1586642578,70,18.03,73.02,79.79,2.86
146,Iqaluit,75,CA,1586642579,63,63.75,-68.51,26.6,13.87
147,Kavaratti,0,IN,1586642580,68,10.57,72.64,84.34,3.31
148,Marabba,20,SD,1586642581,11,12.35,32.18,86.23,16.24
149,Anan,90,JP,1586642583,76,33.92,134.65,51.01,8.05
150,Tura,0,IN,1586642462,32,25.52,90.22,72.18,4.45
151,Taoudenni,0,ML,1586642585,11,22.68,-3.98,89.58,4.83
152,Kaitangata,92,NZ,1586642514,62,-46.28,169.85,56.61,8.95
153,Narsaq,100,GL,1586642588,36,60.92,-46.05,44.6,39.15
154,Vostok,69,RU,1586642589,89,46.49,135.88,24.33,2.98
155,Douentza,64,ML,1586642591,23,15.0,-2.95,91.63,9.8
156,Constitución,60,CL,1586642592,65,-35.33,-72.42,60.35,13.62
157,Margate,34,GB,1586642410,81,51.38,1.39,57.99,3.36
158,Karasjok,94,NO,1586642595,68,69.47,25.51,28.4,13.87
159,Bilma,100,NE,1586642596,14,18.69,12.92,81.48,5.97
160,Flin Flon,75,CA,1586642597,44,54.77,-101.86,21.2,12.75
161,Yabrūd,20,SY,1586642599,87,33.97,36.66,50.0,13.87
162,West Wendover,75,US,1586642517,22,40.74,-114.07,68.0,19.46
163,Codrington,98,AU,1586642601,71,-38.27,141.97,53.02,11.23
164,Iskateley,81,RU,1586642602,95,67.68,53.15,13.23,9.4
165,Nauta,98,PE,1586642604,88,-4.51,-73.58,79.47,0.78
166,Machalí,100,CL,1586642605,59,-34.18,-70.67,64.4,9.17
167,Cherskiy,100,RU,1586642606,96,68.75,161.3,13.78,12.44
168,Atar,0,MR,1586642454,17,20.52,-13.05,85.01,8.08
169,Viedma,100,AR,1586642609,40,-40.81,-63.0,62.69,13.24
170,Bemidji,1,US,1586642610,44,47.47,-94.88,42.01,14.99
171,Aktyubinskiy,100,RU,1586642611,78,54.81,52.81,40.28,9.78
172,Linxia Chengguanzhen,5,CN,1586642612,27,35.6,103.21,39.74,1.72
173,Xining,4,CN,1586642614,25,36.62,101.77,34.81,1.48
174,Mzimba,59,MW,1586642615,64,-11.9,33.6,61.68,3.49
175,Saurimo,78,AO,1586642616,71,-9.66,20.39,65.75,3.87
176,Naze,75,JP,1586642617,93,28.37,129.48,66.2,18.34
177,Fayaoué,47,NC,1586642619,62,-20.65,166.53,78.04,6.35
178,Puerto Ayora,40,EC,1586642620,70,-0.74,-90.35,84.2,6.93
179,Sitka,20,US,1586642621,42,57.05,-135.33,48.2,5.82
180,Beyneu,39,KZ,1586642622,48,45.32,55.2,50.92,4.32
181,Abbeville,1,FR,1586642415,81,50.1,1.83,60.8,3.36
182,Gumdag,0,TM,1586642625,56,39.21,54.59,55.85,8.39
183,Aleppo Governorate,0,SY,1586642626,65,36.25,37.5,52.92,8.21
184,Lompoc,20,US,1586642450,67,34.64,-120.46,73.0,17.22
185,Kavieng,99,PG,1586642628,73,-2.57,150.8,83.55,4.92
186,Luganville,40,VU,1586642630,78,-15.53,167.17,80.6,3.36
187,Luanda,71,AO,1586642407,82,-8.84,13.23,79.32,4.79
188,Carrollton,90,US,1586642632,82,32.95,-96.89,68.0,13.87
189,Båtsfjord,30,NO,1586642633,90,70.63,29.72,19.65,4.18
190,Westport,1,US,1586642579,23,41.14,-73.36,55.99,10.29
191,Ust'-Kut,100,RU,1586642374,93,56.79,105.77,28.83,3.65
192,Aksarka,0,RU,1586642637,91,66.56,67.8,10.72,4.45
193,Isangel,20,VU,1586642639,83,-19.55,169.27,77.0,6.15
194,Touros,20,BR,1586642640,78,-5.2,-35.46,82.4,6.93
195,George Town,20,MY,1586642641,88,5.41,100.34,82.4,2.24
196,São João da Barra,90,BR,1586642485,94,-21.64,-41.05,71.6,14.99
197,Alice Springs,5,AU,1586642467,23,-23.7,133.88,57.2,5.82
198,Vila Franca do Campo,20,PT,1586642645,76,37.72,-25.43,57.2,16.11
199,Norman Wells,40,CA,1586642646,54,65.28,-126.83,28.4,11.41
200,Ostrovnoy,51,RU,1586642647,93,68.05,39.51,15.75,11.48
201,Campo Grande,40,BR,1586642413,54,-20.44,-54.65,78.8,5.82
202,Ancud,20,CL,1586642650,62,-41.87,-73.82,53.6,5.82
203,Omboué,100,GA,1586642378,93,-1.57,9.26,76.42,8.05
204,Tsimmerbude,100,RU,1586642652,51,54.67,20.13,39.2,6.71
205,Mongoumba,100,CF,1586642653,87,3.64,18.59,71.15,3.13
206,Abnūb,0,EG,1586642655,42,27.27,31.15,62.6,9.17
207,Aklavik,20,CA,1586642656,57,68.22,-135.01,19.4,9.17
208,Les Cayes,69,HT,1586642657,72,18.2,-73.75,83.07,5.99
209,Verkhnyaya Inta,10,RU,1586642658,94,65.98,60.31,14.11,5.93
210,Gizo Government Station,99,SB,1586642660,78,-8.1,156.84,82.36,6.38
211,Asău,59,RO,1586642661,48,46.43,26.4,44.6,1.7
212,Cidreira,4,BR,1586642662,67,-30.18,-50.21,67.53,7.14
213,Mongu,100,ZM,1586642460,65,-15.25,23.13,67.32,2.21
214,Kargil,1,IN,1586642664,21,34.57,76.1,29.1,3.67
215,Khovd,100,MN,1586642666,39,48.01,91.64,38.35,1.74
216,Dongsheng,0,CN,1586642667,36,39.82,109.98,34.84,3.58
217,Morant Bay,20,JM,1586642668,63,17.88,-76.41,91.4,13.87
218,Rio Grande,0,BR,1586642408,79,-32.03,-52.1,64.99,1.01
219,Sisimiut,96,GL,1586642671,79,66.94,-53.67,35.49,6.69
220,Nemuro,51,JP,1586642553,91,43.32,145.57,30.69,6.51
221,Airai,98,TL,1586642673,72,-8.93,125.41,60.13,1.01
222,Harper,97,LR,1586642450,80,4.38,-7.72,81.25,4.03
223,Severo-Kuril'sk,63,RU,1586642676,93,50.68,156.12,29.23,8.57
224,Chicama,76,PE,1586642677,59,-7.84,-79.15,80.15,9.93
225,Lata,75,PT,1586642678,87,40.16,-8.33,57.99,4.7
226,Khandyga,100,RU,1586642679,97,62.67,135.6,25.45,5.55
227,Toamasina,10,MG,1586642681,82,-18.17,49.38,76.15,7.0
228,Altay,100,CN,1586642682,40,47.87,88.12,43.41,3.69
229,Hohhot,0,CN,1586642683,38,40.81,111.65,24.8,4.47
230,Tsogni,100,GA,1586642684,86,-2.79,10.1,77.05,6.04
231,Camopi,65,GF,1586642686,79,3.17,-52.32,79.79,4.72
232,Nizhniy Kuranakh,100,RU,1586642687,77,58.84,125.49,35.46,3.02
233,Lázaro Cárdenas,56,MX,1586642401,55,17.96,-102.2,85.42,8.43
234,Ishigaki,75,JP,1586642690,93,24.34,124.16,66.2,11.41
235,Ossora,27,RU,1586642691,94,59.24,163.07,15.48,3.87
236,Portland,40,US,1586642630,44,45.52,-122.68,62.01,3.36
237,Ixtapa,75,MX,1586642650,61,20.7,-105.2,80.6,13.87
238,Port Elizabeth,89,ZA,1586642695,63,-33.92,25.57,62.6,6.93
239,Karratha,0,AU,1586642696,50,-20.74,116.85,81.37,8.28
240,Hegang,0,CN,1586642697,70,47.4,130.37,36.27,4.85
241,Andros Town,40,BS,1586642698,69,24.7,-77.77,80.6,13.87
242,Trincomalee,2,LK,1586642700,80,8.57,81.23,80.56,4.61
243,Buluang,22,PH,1586642701,88,13.31,123.34,75.96,3.51
244,Tomatlán,82,MX,1586642702,29,19.93,-105.25,89.98,14.7
245,Esso,93,RU,1586642703,88,55.93,158.7,17.01,3.27
246,Namatanai,100,PG,1586642705,76,-3.67,152.43,82.02,3.67
247,Mizdah,0,LY,1586642706,38,31.45,12.98,60.49,13.69
248,Nuuk,90,GL,1586642707,69,64.18,-51.72,35.6,9.17
249,Pochutla,75,MX,1586642709,49,15.74,-96.47,93.99,14.99
250,Zaliztsi,0,UA,1586642710,62,49.79,25.37,38.21,5.5
251,Porto-Novo,40,BJ,1586642711,70,6.5,2.6,86.0,8.05
252,Eureka,90,US,1586642712,76,40.8,-124.16,57.99,10.29
253,Mount Gambier,90,AU,1586642613,62,-37.83,140.77,53.6,8.05
254,Deputatsky,79,RU,1586642715,93,69.3,139.9,23.14,15.84
255,Yermakovskoye,0,RU,1586642716,76,53.28,92.4,33.66,1.66
256,Ulaangom,40,MN,1586642717,76,49.98,92.07,25.92,0.6
257,Kupang,62,ID,1586642464,77,-10.17,123.58,80.1,7.78
258,Sorong,5,ID,1586642720,89,-0.88,131.25,76.51,0.29
259,Pangnirtung,100,CA,1586642721,89,66.15,-65.71,26.82,3.42
260,Atbasar,98,KZ,1586642723,65,51.8,68.33,40.5,13.11
261,Labuan,75,MY,1586642724,100,5.28,115.24,78.8,1.25
262,Broken Hill,0,AU,1586642725,70,-31.95,141.43,42.8,4.7
263,Santa Flavia,1,IT,1586642726,72,38.09,13.54,57.0,3.42
264,Kukmor,100,RU,1586642728,70,56.19,50.89,40.77,6.29
265,Lakes Entrance,90,AU,1586642729,77,-37.88,147.98,55.56,17.98
266,Along,27,IN,1586642730,50,28.17,94.77,63.34,4.23
267,Cockburn Town,0,TC,1586642731,69,21.46,-71.14,80.69,10.11
268,Provideniya,100,RU,1586642733,94,64.38,-173.3,31.89,4.63
269,Ormara,32,PK,1586642734,73,25.21,64.64,77.38,6.17
270,The Valley,20,AI,1586642735,66,18.22,-63.06,86.0,9.17
271,Abapó,0,BO,1586642736,25,-18.83,-63.47,80.08,6.69
272,Ormond Beach,40,US,1586642651,69,29.29,-81.06,80.6,8.05
273,Tuktoyaktuk,20,CA,1586642739,84,69.45,-133.04,3.2,6.93
274,Megion,60,RU,1586642740,95,61.03,76.11,39.2,4.47
275,Charters Towers,93,AU,1586642741,48,-20.1,146.27,71.4,4.27
276,Carnarvon,14,AU,1586642743,100,-24.87,113.63,75.2,9.17
277,Cabatuan,15,PH,1586642744,78,10.88,122.49,75.31,5.64
278,Bathsheba,20,BB,1586642745,65,13.22,-59.52,82.4,12.75
279,Cabo San Lucas,75,MX,1586642586,52,22.89,-109.91,78.01,25.28
280,Vanderhoof,0,CA,1586642748,51,54.02,-124.02,39.81,1.95
281,Ahipara,90,NZ,1586642749,77,-35.17,173.17,65.52,14.65
282,Kilindoni,100,TZ,1586642750,79,-7.91,39.67,83.01,21.68
283,Taree,0,AU,1586642751,50,-31.9,152.47,57.2,5.82
284,Cap Malheureux,40,MU,1586642716,83,-19.98,57.61,78.01,11.41
285,Ajdabiya,38,LY,1586642754,55,30.76,20.23,61.2,10.51
286,Katsuura,75,JP,1586642755,93,35.13,140.3,50.0,12.75
287,Avera,1,US,1586642756,31,33.19,-82.53,75.2,4.7
288,Temozon,0,MX,1586642758,23,20.8,-88.22,99.73,10.96
289,Bariloche,0,AR,1586642759,37,-41.15,-71.31,57.99,16.11
290,Malaya Vishera,13,RU,1586642760,95,58.85,32.22,29.95,2.71
291,Kyabé,99,TD,1586642762,46,9.45,18.94,84.4,7.9
292,Ponta do Sol,75,PT,1586642763,72,32.67,-17.1,62.6,13.87
293,Coquimbo,85,CL,1586642764,72,-29.95,-71.34,64.4,11.41
294,Gladstone,86,AU,1586642765,69,-23.85,151.25,77.0,4.23
295,Klaksvík,100,FO,1586642767,100,62.23,-6.59,42.8,16.11
296,Kiryat Gat,16,IL,1586642521,82,31.61,34.76,57.2,3.36
297,Kruisfontein,89,ZA,1586642769,54,-34.0,24.73,62.08,2.26
298,Kushmurun,97,KZ,1586642770,78,52.45,64.63,42.98,9.57
299,Yenagoa,99,NG,1586642772,86,4.92,6.26,76.96,3.69
300,Salekhard,0,RU,1586642773,92,66.53,66.6,11.23,7.81
301,Carutapera,100,BR,1586642774,86,-1.2,-46.02,81.18,9.6
302,Nishihara,90,JP,1586642775,83,26.18,127.76,69.8,11.41
303,Chara,100,RU,1586642776,59,56.91,118.26,33.85,2.04
304,Hamilton,75,US,1586642485,25,39.18,-84.53,62.6,9.17
305,Vallenar,94,CL,1586642779,33,-28.57,-70.76,73.99,8.03
306,Ati,90,TD,1586642780,12,13.22,18.34,86.95,16.73
307,Waipawa,55,NZ,1586642781,72,-41.41,175.52,62.6,21.92
308,Grafton,75,US,1586642506,33,42.21,-71.69,52.0,21.92
309,Tual,83,ID,1586642784,70,-5.67,132.75,83.46,0.98
310,Fier,2,AL,1586642785,69,40.72,19.56,58.01,2.28
311,Meulaboh,48,ID,1586642786,79,4.14,96.13,80.24,0.45
312,Lethem,95,GY,1586642787,40,3.38,-59.8,92.1,11.32
313,Hong Kong,20,HK,1586642789,68,22.29,114.16,66.2,19.46
314,Helong,0,CN,1586642790,80,42.54,129.0,30.94,1.39
315,Tevaitoa,96,PF,1586642791,75,-16.78,-151.5,83.64,11.43
316,Tsabong,0,BW,1586642792,30,-26.02,22.4,74.77,12.12
317,Hithadhoo,0,MV,1586642794,65,-0.6,73.08,84.56,6.38
318,Poshekhon'ye,27,RU,1586642795,91,58.5,39.14,28.31,3.09
319,Salalah,40,OM,1586642796,74,17.02,54.09,82.4,9.17
320,Tornio,72,FI,1586642797,86,65.85,24.15,26.6,9.17
321,Minatitlán,40,MX,1586642799,66,17.98,-94.52,89.6,17.22
322,Sur,63,OM,1586642800,67,22.57,59.53,78.96,13.2
323,Amapá,100,BR,1586642801,93,1.0,-52.0,76.15,3.53
324,Nioaque,0,BR,1586642802,48,-21.14,-55.83,77.85,4.52
325,Yangi Marg`ilon,90,UZ,1586642803,76,40.43,71.72,53.6,4.7
326,Novovarshavka,47,RU,1586642805,59,54.17,74.69,44.08,5.75
327,Nouadhibou,0,MR,1586642806,71,20.93,-17.03,69.13,24.2
328,Ulaanbaatar,0,MN,1586642807,18,47.91,106.88,39.2,13.42
329,El Carmen,73,CO,1586642808,52,8.51,-73.45,83.7,1.9
330,Port Blair,63,IN,1586642809,72,11.67,92.75,82.06,7.29
331,Mahibadhoo,8,MV,1586642811,68,3.78,72.97,83.79,2.48
332,Acapulco de Juárez,40,MX,1586642559,74,16.86,-99.89,84.2,9.17
333,Kisangani,92,CD,1586642720,78,0.52,25.2,74.37,1.1
334,Agía Galíni,0,GR,1586642815,62,35.1,24.68,61.0,5.82
335,Kumul,54,CN,1586642816,21,42.8,93.45,54.34,4.45
336,Saint-Philippe,40,RE,1586642817,73,-21.36,55.77,75.2,3.36
337,Kapuskasing,90,CA,1586642818,48,49.42,-82.43,41.0,11.41
338,Roebourne,0,AU,1586642819,44,-20.78,117.13,81.48,7.83
339,Monrovia,5,LR,1586642751,81,6.3,-10.8,81.72,6.22
340,Srednekolymsk,90,RU,1586642822,96,67.45,153.68,21.49,11.16
341,Mikhaylovka,8,RU,1586642823,83,50.06,43.24,36.0,14.9
342,Pyaozerskiy,24,RU,1586642824,94,65.83,31.17,24.66,6.51
343,Trairi,100,BR,1586642826,81,-3.28,-39.27,81.64,7.43
344,Kearney,1,US,1586642827,26,40.7,-99.08,72.0,14.99
345,Languyan,22,PH,1586642828,69,5.26,120.08,82.36,1.39
346,Batagay-Alyta,100,RU,1586642799,87,67.8,130.41,19.9,3.8
347,Kostomuksha,2,RU,1586642831,94,64.57,30.58,21.69,4.27
348,Vanimo,41,PG,1586642833,85,-2.67,141.3,79.43,2.82
349,Waddān,21,LY,1586642834,23,29.16,16.14,67.15,13.73
350,Acarí,30,PE,1586642835,57,-15.43,-74.62,79.0,7.36
351,Denizli Province,0,TR,1586642837,37,37.84,29.07,41.0,2.24
352,Clyde River,75,CA,1586642838,78,70.47,-68.59,8.6,12.75
353,Kinkala,99,CG,1586642839,76,-4.36,14.76,73.81,1.79
354,Kyra,0,RU,1586642840,44,49.58,111.98,37.11,3.29
355,Quryq,28,KZ,1586642842,69,43.2,51.65,47.28,8.79
356,Yar-Sale,30,RU,1586642843,93,66.83,70.83,12.09,8.19
357,Hofn,20,IS,1586642844,55,64.25,-15.21,39.2,24.16
358,Garden City,75,US,1586642845,35,42.33,-83.33,59.0,11.41
359,Atherton,0,GB,1586642847,93,53.52,-2.49,55.0,1.12
360,Oyama,75,JP,1586642848,93,36.3,139.8,51.01,6.93
361,Bandarbeyla,16,SO,1586642849,73,9.49,50.81,81.72,10.22
362,Ahome,40,MX,1586642721,38,25.92,-109.18,79.0,19.46
363,Calbuco,21,CL,1586642851,50,-41.77,-73.13,55.4,11.41
364,Hachinohe,75,JP,1586642853,93,40.5,141.5,42.01,3.36
365,Nioro,3,GM,1586642854,47,13.35,-15.75,79.56,10.54
366,East London,94,ZA,1586642855,67,-33.02,27.91,74.39,3.02
367,Sarh,99,TD,1586642857,61,9.14,18.39,78.8,4.7
368,Yairipok,1,IN,1586642858,37,24.67,94.07,60.67,1.41
369,Zhicheng,0,CN,1586642859,92,30.3,111.5,45.0,4.92
370,Bafra,75,TR,1586642860,87,41.57,35.91,46.4,4.7
371,Altamont,1,US,1586642862,47,42.21,-121.74,61.0,21.92
372,Kununurra,75,AU,1586642863,83,-15.77,128.73,77.0,2.24
373,Yumen,100,CN,1586642864,23,40.28,97.2,45.43,5.01
374,Vicksburg,1,US,1586642593,36,32.35,-90.88,77.0,6.93
375,Hobyo,0,SO,1586642765,70,5.35,48.53,83.07,14.12
376,Nelson Bay,4,AU,1586642868,58,-32.72,152.15,57.99,10.29
377,Hilton Head,1,US,1586642755,35,32.22,-80.75,73.99,6.93
378,Fallon,40,US,1586642637,26,39.47,-118.78,71.6,10.29
379,Alihe,0,CN,1586642872,60,50.57,123.72,38.34,3.4
380,Oktyabr'skiy,100,RU,1586642873,81,54.48,53.47,40.82,7.61
381,Todos Santos,75,MX,1586642875,47,23.45,-110.22,78.01,17.22
382,General Pico,28,AR,1586642876,41,-35.66,-63.76,74.35,9.31
383,Bowen,99,AU,1586642877,94,-20.02,148.23,75.0,2.24
384,Koumac,18,NC,1586642879,70,-20.57,164.28,77.72,7.72
385,Kudahuvadhoo,8,MV,1586642880,63,2.67,72.89,84.69,4.92
386,Pangody,100,RU,1586642881,95,65.85,74.49,23.79,11.03
387,Osmeña,3,PH,1586642882,77,10.52,119.93,80.31,5.53
388,Lorengau,58,PG,1586642665,75,-2.02,147.27,82.27,1.25
389,Bantul,92,ID,1586642885,78,-7.89,110.33,76.91,1.92
390,Chicontepec,36,MX,1586642886,44,20.97,-98.17,90.81,8.41
391,Inhambane,64,MZ,1586642887,80,-23.86,35.38,73.53,3.89
392,Aykhal,89,RU,1586642889,73,66.0,111.5,24.8,6.71
393,Iranshahr,100,IR,1586642890,30,27.2,60.68,80.6,4.7
394,Mata,99,PT,1586642891,93,40.68,-7.46,54.0,1.01
395,Safranbolu,94,TR,1586642892,65,41.25,32.69,42.33,1.86
396,Ilo,67,PE,1586642894,75,-17.64,-71.34,73.4,7.31
397,Surgut,40,RU,1586642895,91,61.25,73.42,39.2,6.71
398,Cartagena,20,CO,1586642849,74,10.4,-75.51,87.8,14.99
399,Dunedin,100,NZ,1586642834,87,-45.87,170.5,55.99,9.15
400,Sharkan,100,RU,1586642898,56,57.3,53.87,44.01,1.99
401,Pithorāgarh,0,IN,1586642900,24,29.58,80.22,56.25,3.47
402,Mahon,4,ES,1586642901,82,39.89,4.27,55.4,8.05
403,Biryusinsk,0,RU,1586642902,91,55.96,97.82,28.65,2.77
404,Caucayá,53,CO,1586642903,69,-0.19,-74.78,85.28,0.83
405,Tiarei,100,PF,1586642905,70,-17.53,-149.33,86.0,5.82
406,Sault Ste. Marie,1,CA,1586642906,31,46.52,-84.33,50.0,16.11
407,Karambakkudi,0,IN,1586642907,79,10.47,79.13,77.92,5.14
408,Adrar,0,MR,1586642908,12,20.5,-10.07,85.59,10.56
409,San-Pédro,99,CI,1586642910,81,4.75,-6.64,81.23,4.99
410,Matara,19,LK,1586642911,88,5.95,80.54,76.69,5.44
411,Djenné,23,ML,1586642912,22,13.91,-4.55,90.79,6.71
412,Boca do Acre,100,BR,1586642913,81,-8.75,-67.4,81.99,2.15
413,Khatanga,32,RU,1586642915,93,71.97,102.5,-1.05,8.01
414,Tall Kayf,75,TR,1586642916,81,37.08,41.07,48.2,2.24
415,Terrace,5,CA,1586642917,21,54.52,-128.6,50.0,6.93
416,Omsk,34,RU,1586642741,64,55.0,73.4,35.6,2.24
417,North Platte,1,US,1586642751,28,41.12,-100.77,71.6,11.41
418,Kamaishi,10,JP,1586642921,66,39.27,141.88,42.12,5.84
419,Nara,75,JP,1586642922,76,34.69,135.8,52.0,5.82
420,Port Macquarie,0,AU,1586642669,50,-31.43,152.92,57.2,5.82
421,Ayamé,72,CI,1586642924,89,5.61,-3.16,77.18,3.0
422,Nanortalik,100,GL,1586642926,72,60.14,-45.24,37.58,28.25
423,Maningrida,7,AU,1586642927,91,-12.07,134.27,75.81,7.61
424,Bayan,26,CN,1586642928,66,46.08,127.4,37.42,3.24
425,Kiunga,96,PG,1586642930,97,-6.12,141.29,73.89,1.39
426,Denpasar,40,ID,1586642904,83,-8.65,115.22,80.6,4.7
427,Vila Velha,90,BR,1586642912,88,-20.33,-40.29,75.99,6.93
428,Lagoa,0,PT,1586642933,75,39.05,-27.98,61.66,10.47
429,Fairfield,1,US,1586642672,23,41.27,-73.32,55.99,10.29
430,Ōfunato,1,JP,1586642936,66,39.07,141.72,42.08,4.32
431,Teseney,9,ER,1586642937,35,15.11,36.66,73.51,7.47
432,San Matías,1,BO,1586642938,57,-16.37,-58.4,84.83,1.92
433,Santa Isabel,40,BR,1586642881,82,-23.32,-46.22,72.0,5.82
434,Markova,1,UA,1586642941,63,48.68,24.41,36.86,0.65
435,Moche,88,PE,1586642942,65,-8.17,-79.01,79.12,10.04
436,Tezu,0,IN,1586642943,32,27.92,96.17,69.82,3.58
437,Jizan,9,SA,1586642944,74,17.33,42.67,84.2,8.05
438,Zapolyarnyy,6,RU,1586642946,73,69.42,30.81,21.2,13.87
439,Morros,87,BR,1586642947,68,-9.45,-46.3,78.84,3.42
440,Popondetta,100,PG,1586642948,81,-8.75,148.25,77.4,3.29
441,Alekseyevsk,100,RU,1586642949,94,57.84,108.35,29.19,1.86
442,Progreso,5,MX,1586642951,17,21.28,-89.67,107.6,11.41
443,Halapitan,11,PH,1586642952,78,7.92,125.33,67.41,1.9
444,Mashhad,75,IR,1586642953,93,36.3,59.61,55.4,9.17
445,Laguna,40,US,1586642905,68,38.42,-121.42,70.0,8.05
446,Mīnāb,100,IR,1586642956,83,27.15,57.08,78.8,9.17
447,Chengde,0,CN,1586642957,41,40.97,117.94,43.9,5.39
448,High Level,75,CA,1586642837,39,58.52,-117.14,30.2,16.11
449,Humaitá,98,BR,1586642960,87,-7.51,-63.02,81.5,1.52
450,Erenhot,0,CN,1586642961,37,43.65,111.98,39.47,6.73
451,Padang,98,ID,1586642962,76,-0.95,100.35,78.58,5.01
452,Forsytheganj,0,BY,1586642963,73,52.63,29.73,35.01,5.23
453,Chapais,90,CA,1586642965,63,49.78,-74.85,28.4,9.17
454,Tombouctou,0,ML,1586642966,10,20.0,-3.0,90.28,7.74
455,Gushikawa,90,JP,1586642967,83,26.35,127.87,69.8,14.99
456,Yining,0,CN,1586642968,82,29.04,114.56,42.39,1.77
457,Belle Fourche,90,US,1586642969,100,44.67,-103.85,30.2,14.99
458,Caravelas,62,BR,1586642971,85,-17.71,-39.25,79.21,11.05
459,Reitz,0,ZA,1586642972,36,-27.8,28.43,57.07,2.53
460,Calama,0,CL,1586642973,18,-22.47,-68.93,73.4,17.22
461,Merrill,1,US,1586642975,30,45.18,-89.68,59.0,10.29
462,Muskegon,75,US,1586642976,26,43.3,-86.13,59.0,10.29
463,Redcliffe,3,AU,1586642977,46,-27.23,153.1,71.01,3.36
464,Neral,40,IN,1586642947,79,19.03,73.32,84.2,3.36
465,Russell,1,US,1586642979,25,32.35,-85.2,75.2,8.05
466,Isla Mujeres,20,MX,1586642981,62,21.23,-86.73,86.0,17.22
467,Savalou,96,BJ,1586642937,55,7.93,1.98,86.18,8.12
468,Marietta,20,US,1586642983,19,33.95,-84.55,73.99,4.7
469,Ilhéus,40,BR,1586642984,78,-14.79,-39.05,82.4,4.7
470,Troitskoye,1,RU,1586642986,86,52.98,84.68,32.49,5.12
471,Acajutla,96,SV,1586642987,60,13.59,-89.83,87.87,6.89
472,Rafaela,0,AR,1586642988,38,-31.25,-61.49,70.0,1.01
473,Fairbanks,1,US,1586642989,38,64.84,-147.72,41.0,4.05
474,Vardø,61,NO,1586642991,89,70.37,31.11,27.61,4.99
475,Talaya,100,RU,1586642992,89,61.38,152.75,17.55,1.32
476,Tuatapere,81,NZ,1586642993,65,-46.13,167.68,57.99,3.0
477,Deyang,3,CN,1586642994,50,31.13,104.38,54.7,2.91
478,Remanso,100,BR,1586642995,77,-9.62,-42.08,75.22,2.08
479,Luga,7,RU,1586642997,93,58.74,29.85,31.03,3.47
480,Evensk,100,RU,1586642998,89,61.95,159.23,8.92,4.0
481,Itamaracá,20,BR,1586642999,70,-7.75,-34.83,84.2,6.93
482,Węgorzewo,82,PL,1586643000,65,54.22,21.74,39.72,5.41
483,Zile,17,TR,1586643002,60,40.3,35.89,42.8,11.41
484,Duncan,90,US,1586643003,100,34.5,-97.96,66.2,17.22
485,Alice Town,34,BS,1586643004,86,25.72,-79.3,76.48,18.03
486,Batagay,99,RU,1586643005,94,67.63,134.63,27.18,6.78
487,Port Keats,100,AU,1586643006,78,-14.25,129.55,78.46,11.95
488,Nantucket,1,US,1586643008,49,41.28,-70.1,52.0,23.04
489,Rybnaya Sloboda,100,RU,1586643009,86,55.46,50.14,37.4,11.18
490,Fortuna,40,US,1586643010,81,40.6,-124.16,57.99,10.29
491,Emerald,0,AU,1586643011,45,-23.53,148.17,68.0,5.44
492,Bacolod City,18,PH,1586642927,75,10.67,122.95,77.07,3.27
493,Visnes,79,NO,1586643014,93,59.36,5.22,44.6,12.75
494,Great Yarmouth,76,GB,1586643015,54,52.61,1.73,57.99,1.12
495,Kahului,75,US,1586643016,65,20.89,-156.47,78.8,9.17
496,Yulara,100,AU,1586643017,28,-25.24,130.99,57.2,6.93
497,Paranaguá,75,BR,1586643019,100,-25.52,-48.51,59.0,9.17
498,Goderich,1,CA,1586643020,73,43.75,-81.72,54.0,1.01
499,Marsaxlokk,0,MT,1586643021,87,35.84,14.54,57.0,4.7
500,Bonthe,89,SL,1586643022,75,7.53,-12.51,82.65,8.08
501,Mareeba,46,AU,1586643023,94,-17.0,145.43,75.2,1.77
502,Daru,93,PG,1586643025,84,-9.08,143.21,79.61,9.06
503,Nagaoka,20,JP,1586643026,86,37.45,138.85,43.0,2.24
504,Horta,0,PT,1586643027,71,38.53,-28.63,62.6,7.9
505,Lüderitz,0,NA,1586643028,93,-26.65,15.16,57.2,1.12
506,Fukuechō,100,JP,1586643030,88,32.69,128.84,55.02,19.73
507,Gouyave,20,GD,1586643031,70,12.16,-61.73,84.2,17.22
508,Haines Junction,0,CA,1586643032,63,60.75,-137.51,33.39,1.68
509,Malbork,100,PL,1586643033,39,54.04,19.03,46.99,6.93
510,Buraidah,0,SA,1586643034,35,26.33,43.98,69.8,10.29
511,Atambua,91,ID,1586643036,80,-9.11,124.89,72.64,2.66
512,Novki,100,RU,1586643037,83,56.36,41.08,33.22,10.09
513,Matagami,75,CA,1586643038,63,49.75,-77.63,30.2,6.93
514,Sivaki,0,RU,1586643039,82,52.63,126.75,34.5,5.66
515,Maniitsoq,91,GL,1586643041,72,65.42,-52.9,38.53,4.74
516,Aitape,99,PG,1586642927,85,-3.14,142.35,79.11,4.41
517,Solnechnyy,43,RU,1586643043,78,50.72,136.63,32.99,2.57
518,Olafsvik,60,IS,1586643044,79,64.89,-23.71,37.24,28.39
519,Proddatūr,0,IN,1586643045,52,14.73,78.55,78.35,4.81
520,Orán,0,AR,1586643047,62,-23.13,-64.33,75.99,3.91
521,Santos Dumont,90,BR,1586643048,88,-21.46,-43.55,69.01,6.93
522,Anori,99,BR,1586643049,96,-3.77,-61.64,75.74,5.46
523,San Patricio,40,MX,1586643051,74,19.22,-104.7,86.0,23.04
524,Rome,20,US,1586643005,38,43.21,-75.46,46.4,19.46
525,Chumayel,5,MX,1586643054,39,20.43,-89.32,98.6,13.87
526,Shingū,100,JP,1586643055,63,33.73,135.98,50.92,6.67
527,Araouane,0,ML,1586643056,10,18.9,-3.53,88.83,5.86
528,Tiznit Province,99,MA,1586643057,70,29.58,-9.5,59.23,3.91
529,Salinópolis,93,BR,1586643059,83,-0.61,-47.36,82.08,11.32
530,Miquelon,43,PM,1586643061,93,47.1,-56.38,33.06,26.15
531,Cururupu,96,BR,1586643060,87,-1.83,-44.87,80.26,5.75
532,Trelew,0,AR,1586643004,27,-43.25,-65.31,63.46,14.85
533,Muros,40,ES,1586643066,93,42.78,-9.06,57.0,4.7
534,Mahébourg,40,MU,1586643051,83,-20.41,57.7,78.01,11.41
535,Najrān,40,SA,1586643068,30,17.49,44.13,82.4,2.24
536,Aksay,42,RU,1586643069,44,47.26,39.87,39.99,8.95
537,Vulcan,61,RO,1586643070,55,45.38,23.27,44.4,1.95
538,Sioux Lookout,75,CA,1586642965,59,50.1,-91.92,35.6,13.87
539,Kargasok,65,RU,1586643073,94,59.06,80.86,33.08,5.88
540,Khani,75,GE,1586643074,93,41.96,42.96,42.8,4.7
541,Sarny,0,UA,1586643075,69,51.34,26.6,36.81,4.32
542,Songjianghe,0,CN,1586643077,79,42.19,127.48,28.11,2.17
543,Sittwe,11,MM,1586643078,86,20.15,92.9,76.66,5.97
544,Souillac,40,MU,1586643079,83,-20.52,57.52,78.01,11.41
545,Oro Valley,90,US,1586643080,76,32.39,-110.97,54.0,11.41
546,Upata,100,VE,1586643081,25,8.01,-62.4,92.75,9.95
547,Palmer,40,US,1586643083,31,42.16,-72.33,51.01,21.92
548,Havøysund,65,NO,1586643084,86,71.0,24.66,28.4,8.05
549,Manokwari,65,ID,1586643085,74,-0.87,134.08,80.29,2.21
550,Aripuanã,40,BR,1586643086,80,-9.17,-60.63,83.1,0.96
551,Preeceville,100,CA,1586643088,88,51.95,-102.67,20.66,16.98
552,Arman',97,RU,1586643089,92,59.7,150.17,20.5,2.66
553,Andreapol',78,RU,1586643090,86,56.65,32.27,32.27,5.55
554,Kayerkan,75,RU,1586643091,80,69.35,87.76,35.6,31.32
555,Teguise,20,ES,1586643093,68,29.06,-13.56,66.2,12.75
556,Kirakira,95,SB,1586642966,77,-10.45,161.92,82.42,6.38
557,Montmagny,99,FR,1586643095,51,48.97,2.35,66.0,2.24
558,La Primavera,42,CO,1586643097,58,5.49,-70.41,88.47,8.05
559,Kaihua,98,CN,1586643098,54,23.37,104.28,55.62,6.6
560,Ust'-Ishim,90,RU,1586643099,91,57.69,71.17,38.57,3.8
561,Enumclaw,40,US,1586643091,54,47.2,-121.99,60.01,4.7
562,Plátanos,2,GR,1586643102,87,37.67,21.62,53.6,2.24
563,Atocha,0,BO,1586643103,7,-20.93,-66.23,57.0,16.51
564,Pueblo,1,US,1586643104,8,38.25,-104.61,77.0,4.7
565,Ilhabela,39,BR,1586643106,63,-23.78,-45.36,72.45,5.97
566,Antofagasta,20,CL,1586643023,68,-23.65,-70.4,68.0,12.75
567,Necochea,85,AR,1586643108,67,-38.55,-58.74,64.0,8.01
568,Urucará,98,BR,1586643109,86,-2.54,-57.76,81.0,1.9
569,Poyarkovo,0,RU,1586643111,78,49.6,128.68,38.44,5.93
570,Vikhorevka,2,RU,1586643112,92,56.12,101.16,23.0,6.71
571,Talcahuano,0,CL,1586643113,55,-36.72,-73.12,64.4,16.11
572,Kieta,92,PG,1586643114,77,-6.22,155.63,81.34,2.64
573,Poum,50,NC,1586643012,71,-20.23,164.02,79.09,11.65
574,Ambulu,75,ID,1586643117,79,-8.35,113.61,76.78,2.89
575,Burnie,24,AU,1586643118,64,-41.07,145.92,55.0,11.01
576,Moose Factory,75,CA,1586643119,51,51.26,-80.61,35.6,4.7
577,Henties Bay,5,NA,1586643121,70,-22.12,14.28,73.99,5.73
578,Qandala,19,SO,1586643122,63,11.47,49.87,84.31,8.86
579,Tignère,100,CM,1586643123,46,7.37,12.65,67.39,1.9
580,Sept-Îles,75,CA,1586643124,30,50.2,-66.38,42.8,17.22
581,Pinotepa Nacional,99,MX,1586643126,32,16.32,-98.02,92.61,12.37
582,Ekhabi,51,RU,1586643128,96,53.51,142.97,27.64,12.77
583,Quang Ngai,100,VN,1586643129,88,15.12,108.8,76.6,2.73
584,Chimbote,85,PE,1586643130,65,-9.09,-78.58,79.05,12.55
585,Havre-St-Pierre,90,CA,1586643131,48,50.23,-63.6,41.0,16.11
586,Ponta Delgada,20,PT,1586643133,76,37.73,-25.67,57.2,13.87
587,Weligama,16,LK,1586643134,87,5.97,80.42,76.93,4.68
588,Pilar,20,BR,1586642932,83,-9.6,-35.96,80.6,8.05
589,Aquiraz,20,BR,1586643137,74,-3.9,-38.39,84.2,8.05
590,Escanaba,1,US,1586643138,49,45.75,-87.06,57.99,19.46
591,Honiara,75,SB,1586643050,83,-9.43,159.95,80.6,3.36
592,Laas,5,IT,1586643140,70,46.62,10.7,60.8,4.7
593,Van,75,TR,1586643142,80,38.49,43.38,41.0,4.03
594,Alexandria,0,EG,1586642877,72,31.22,29.96,60.8,6.93
595,Gejiu,100,CN,1586643144,58,23.31,103.16,52.39,4.59
